[
  {
    "id": "1",
    "district": "1",
    "lon": "4.420650000000000000",
    "lat": "51.21782000000000000",
    "bikes": "0",
    "slots": "22",
    "zip": "2018",
    "address": "Koningin Astridplein",
    "addressNumber": null,
    "nearbyStations": "3,4,5,24",
    "status": "OPN",
    "name": "001- Centraal Station - Astrid"
  },
  {
    "id": "2",
    "district": "1",
    "lon": "4.420750000000000000",
    "lat": "51.21758000000000000",
    "bikes": "34",
    "slots": "34",
    "zip": "2018",
    "address": "Koningin Astridplein",
    "addressNumber": " tov st1",
    "nearbyStations": "3,4,5,24",
    "status": "OPN",
    "name": "002- Centraal Station - Astrid 2"
  },
  {
    "id": "3",
    "district": null,
    "lon": "4.421771338842944000",
    "lat": "51.21308585312569000",
    "bikes": "15",
    "slots": "13",
    "zip": "2018",
    "address": "Kievitplein",
    "addressNumber": "tov st 5",
    "nearbyStations": "1,2,4,6",
    "status": "OPN",
    "name": "003- Centraal station Kievit 2"
  },
  {
    "id": "4",
    "district": "1",
    "lon": "4.420094444444445000",
    "lat": "51.21736388888889000",
    "bikes": "2",
    "slots": "17",
    "zip": "2018",
    "address": "De Keyserlei",
    "addressNumber": "57",
    "nearbyStations": "1,2,3,5",
    "status": "OPN",
    "name": "004- De Keyserlei"
  },
  {
    "id": "5",
    "district": "1",
    "lon": "4.421732916607050000",
    "lat": "51.21301072974409000",
    "bikes": "19",
    "slots": "14",
    "zip": "2018",
    "address": "Lange Kievitstraat",
    "addressNumber": "n\u00b070",
    "nearbyStations": "1,2,4,6",
    "status": "OPN",
    "name": "005- Centraal Station \/ Kievit"
  },
  {
    "id": "6",
    "district": null,
    "lon": "4.422179962645858000",
    "lat": "51.21031666135904000",
    "bikes": "12",
    "slots": "12",
    "zip": "2018",
    "address": "Mercatorstraat ",
    "addressNumber": "tov 18",
    "nearbyStations": "5,104,111,116",
    "status": "OPN",
    "name": "006- Premetro Plantin"
  },
  {
    "id": "7",
    "district": "1",
    "lon": "4.433947713271024000",
    "lat": "51.20107584716423000",
    "bikes": "0",
    "slots": "33",
    "zip": "2600",
    "address": "Binnensingel ingang station Berchem",
    "addressNumber": null,
    "nearbyStations": "22,97,106,112",
    "status": "OPN",
    "name": "007- NMBS Berchem "
  },
  {
    "id": "8",
    "district": null,
    "lon": "4.433958407621510000",
    "lat": "51.20108907303041000",
    "bikes": "4",
    "slots": "25",
    "zip": "2600",
    "address": "Ryckaertplein",
    "addressNumber": null,
    "nearbyStations": "22,97,106,112",
    "status": "OPN",
    "name": "008- NMBS Berchem 2"
  },
  {
    "id": "9",
    "district": "1",
    "lon": "4.437700892649170000",
    "lat": "51.20896521707293000",
    "bikes": "7",
    "slots": "11",
    "zip": "2140",
    "address": "Wilrijkstraat - Plantin Moretuslei",
    "addressNumber": null,
    "nearbyStations": "69,105,110,132",
    "status": "OPN",
    "name": "009- NMBS Oost"
  },
  {
    "id": "10",
    "district": "1",
    "lon": "4.390718261329017000",
    "lat": "51.19846968971121000",
    "bikes": "13",
    "slots": "21",
    "zip": "2018",
    "address": "Desguinlei - Montignystraat",
    "addressNumber": null,
    "nearbyStations": "12,40,86,87",
    "status": "OPN",
    "name": "010- NMBS Zuid"
  },
  {
    "id": "11",
    "district": "1",
    "lon": "4.416330472403196000",
    "lat": "51.21997793519735000",
    "bikes": "0",
    "slots": "24",
    "zip": "2018",
    "address": "Itali\u00eblei - Franklin Rooseveltplaats",
    "addressNumber": null,
    "nearbyStations": "24,25,26,54",
    "status": "OPN",
    "name": "011- Roosevelt"
  },
  {
    "id": "12",
    "district": null,
    "lon": "4.390135000000000000",
    "lat": "51.19930600000000000",
    "bikes": "8",
    "slots": "28",
    "zip": "2018",
    "address": "De Singel\/ Brederodestraat",
    "addressNumber": "1",
    "nearbyStations": "10,40,86,87",
    "status": "OPN",
    "name": "012- Brussel"
  },
  {
    "id": "13",
    "district": null,
    "lon": "4.402245000000000000",
    "lat": "51.19388200000000000",
    "bikes": "0",
    "slots": "36",
    "zip": null,
    "address": "Jan van rijswijcklaan aan bedrijf DE SINGEL",
    "addressNumber": null,
    "nearbyStations": "14,31,40,131",
    "status": "OPN",
    "name": "013- De Singel"
  },
  {
    "id": "14",
    "district": null,
    "lon": "4.405689000000000000",
    "lat": "51.19681300000000000",
    "bikes": "13",
    "slots": "22",
    "zip": "2018",
    "address": "Jan Van Rijswijcklaan",
    "addressNumber": "86",
    "nearbyStations": "13,31,89,99",
    "status": "OPN",
    "name": "014- Markgrave"
  },
  {
    "id": "15",
    "district": "1",
    "lon": "4.394392340970182000",
    "lat": "51.20782211517101000",
    "bikes": "9",
    "slots": "14",
    "zip": "2000",
    "address": "Beeldhouwersstraat - Admiraal De Boisotstraat",
    "addressNumber": null,
    "nearbyStations": "16,75,80,83",
    "status": "OPN",
    "name": "015- Schone Kunsten"
  },
  {
    "id": "16",
    "district": null,
    "lon": "4.396613000000000000",
    "lat": "51.21016000000000000",
    "bikes": "5",
    "slots": "22",
    "zip": "2000",
    "address": "Karel Rogierstraat ",
    "addressNumber": "8",
    "nearbyStations": "15,72,74,83",
    "status": "OPN",
    "name": "016- Marnixplaats"
  },
  {
    "id": "17",
    "district": "1",
    "lon": "4.401197046278909000",
    "lat": "51.21888424261340000",
    "bikes": "0",
    "slots": "17",
    "zip": "2000",
    "address": "Groenplaats n\u00b0 7",
    "addressNumber": null,
    "nearbyStations": "19,60,64,66",
    "status": "OPN",
    "name": "017- Groenplaats"
  },
  {
    "id": "18",
    "district": "1",
    "lon": "4.406168081225285000",
    "lat": "51.21818701003684000",
    "bikes": "0",
    "slots": "36",
    "zip": "2000",
    "address": "Meir n\u00b0 18",
    "addressNumber": null,
    "nearbyStations": "17,19,20,23",
    "status": "OPN",
    "name": "018- Meirbrug"
  },
  {
    "id": "19",
    "district": "1",
    "lon": "4.403610000000000000",
    "lat": "51.21924000000000000",
    "bikes": "0",
    "slots": "24",
    "zip": "2000",
    "address": "Eiermarkt ",
    "addressNumber": "13",
    "nearbyStations": "17,18,20,57",
    "status": "OPN",
    "name": "019- Eiermarkt"
  },
  {
    "id": "20",
    "district": "1",
    "lon": "4.401000000000000000",
    "lat": "51.21880000000000000",
    "bikes": "0",
    "slots": "27",
    "zip": "2000",
    "address": "Groenkerkhofstraat\/Nationalestraat",
    "addressNumber": null,
    "nearbyStations": "18,19,60,66",
    "status": "OPN",
    "name": "020- Groenplaats 2"
  },
  {
    "id": "21",
    "district": null,
    "lon": "4.419189000000000000",
    "lat": "51.19548200000000000",
    "bikes": "13",
    "slots": "16",
    "zip": null,
    "address": "Grotesteenweg 150\/Driekoningenstraat",
    "addressNumber": null,
    "nearbyStations": "46,61,100,103",
    "status": "OPN",
    "name": "021- Driekoningen"
  },
  {
    "id": "22",
    "district": null,
    "lon": "4.430990359067499000",
    "lat": "51.19992476161931000",
    "bikes": "4",
    "slots": "29",
    "zip": "2600",
    "address": "Statiestraat 162",
    "addressNumber": null,
    "nearbyStations": "8,47,55,97",
    "status": "OPN",
    "name": "022- Statie"
  },
  {
    "id": "23",
    "district": "1",
    "lon": "4.408880661964794000",
    "lat": "51.21708416292551000",
    "bikes": "0",
    "slots": "20",
    "zip": "2018",
    "address": "Wapper - Jodenstraat",
    "addressNumber": null,
    "nearbyStations": "18,26,36,37",
    "status": "OPN",
    "name": "023- Rubenshuis"
  },
  {
    "id": "24",
    "district": null,
    "lon": "4.416550159127468000",
    "lat": "51.21791414153401000",
    "bikes": "2",
    "slots": "26",
    "zip": "2018",
    "address": "De Keyserlei\/Van Ertbornstraat",
    "addressNumber": null,
    "nearbyStations": "1,2,4,25",
    "status": "OPN",
    "name": "024- Opera"
  },
  {
    "id": "25",
    "district": "1",
    "lon": "4.414313350000000000",
    "lat": "51.21818883000000000",
    "bikes": "2",
    "slots": "33",
    "zip": "2000",
    "address": "Leysstraat",
    "addressNumber": "27",
    "nearbyStations": "11,24,26,27",
    "status": "OPN",
    "name": "025- Teniersplaats"
  },
  {
    "id": "26",
    "district": null,
    "lon": "4.412475243159753000",
    "lat": "51.21822789177805000",
    "bikes": "0",
    "slots": "35",
    "zip": "2000",
    "address": "Meir 84",
    "addressNumber": null,
    "nearbyStations": "23,24,25,27",
    "status": "OPN",
    "name": "026- Meir-Antoon Van Dijck"
  },
  {
    "id": "27",
    "district": null,
    "lon": "4.411949186215027000",
    "lat": "51.21950291247646000",
    "bikes": "17",
    "slots": "18",
    "zip": "2000",
    "address": "Lange Nieuwstraat 101",
    "addressNumber": null,
    "nearbyStations": "11,24,25,26",
    "status": "OPN",
    "name": "027- Lange Nieuwstraat"
  },
  {
    "id": "28",
    "district": "1",
    "lon": "4.408659692889357000",
    "lat": "51.22148804502052000",
    "bikes": "3",
    "slots": "21",
    "zip": "2000",
    "address": "Keizerstraat ro n\u00b0 56",
    "addressNumber": null,
    "nearbyStations": "51,54,56,57",
    "status": "OPN",
    "name": "028- Keizerstraat"
  },
  {
    "id": "29",
    "district": "1",
    "lon": "4.406064590410548000",
    "lat": "51.20177790228143000",
    "bikes": "15",
    "slots": "3",
    "zip": "2018",
    "address": "Lange Lozanastraat n\u00b0 149",
    "addressNumber": null,
    "nearbyStations": "42,88,90,92",
    "status": "OPN",
    "name": "029- Lozana"
  },
  {
    "id": "30",
    "district": null,
    "lon": "4.433518298737513000",
    "lat": "51.21631845101857000",
    "bikes": "9",
    "slots": "14",
    "zip": "2140",
    "address": "Laar",
    "addressNumber": "tov nr 16",
    "nearbyStations": "107,108,109,113",
    "status": "OPN",
    "name": "030- Het Laar"
  },
  {
    "id": "31",
    "district": "1",
    "lon": "4.408029450760751000",
    "lat": "51.19311916942493000",
    "bikes": "16",
    "slots": "4",
    "zip": "2018",
    "address": "Karel Oomsstraat - Binnensingel",
    "addressNumber": null,
    "nearbyStations": "13,14,99,131",
    "status": "OPN",
    "name": "031- Wezenberg"
  },
  {
    "id": "32",
    "district": "1",
    "lon": "4.420708379829534000",
    "lat": "51.22173485685548000",
    "bikes": "10",
    "slots": "16",
    "zip": "2060",
    "address": "De Conickplein ro n\u00b0 26",
    "addressNumber": null,
    "nearbyStations": "1,4,11,115",
    "status": "OPN",
    "name": "032- Permeke"
  },
  {
    "id": "33",
    "district": "1",
    "lon": "4.409645771552839000",
    "lat": "51.22621837372287000",
    "bikes": "14",
    "slots": "6",
    "zip": "2000",
    "address": "Hessenplein n\u00b0 2",
    "addressNumber": null,
    "nearbyStations": "45,52,53,129",
    "status": "OPN",
    "name": "033- Hessenhuis"
  },
  {
    "id": "34",
    "district": "1",
    "lon": "4.390343681438131000",
    "lat": "51.21101506600984000",
    "bikes": "6",
    "slots": "21",
    "zip": "2000",
    "address": "Leuvenstraat - Waalsekaai",
    "addressNumber": null,
    "nearbyStations": "35,74,75,82",
    "status": "OPN",
    "name": "034- M HKA"
  },
  {
    "id": "35",
    "district": null,
    "lon": "4.389800000000000000",
    "lat": "51.21214000000000000",
    "bikes": "8",
    "slots": "22",
    "zip": "2000",
    "address": "cockerillkaai",
    "addressNumber": null,
    "nearbyStations": "34,71,74,75",
    "status": "OPN",
    "name": "035- Cockerillkaai"
  },
  {
    "id": "36",
    "district": "1",
    "lon": "4.405926457819422000",
    "lat": "51.21645368917724000",
    "bikes": "0",
    "slots": "21",
    "zip": "2000",
    "address": "Schuttershofstraat n\u00b0 2",
    "addressNumber": null,
    "nearbyStations": "18,19,23,67",
    "status": "OPN",
    "name": "036- Bourla"
  },
  {
    "id": "37",
    "district": "1",
    "lon": "4.412371967260860000",
    "lat": "51.21559347643882000",
    "bikes": "11",
    "slots": "15",
    "zip": "2000",
    "address": "Tabakvest - Ibis Hotel",
    "addressNumber": null,
    "nearbyStations": "23,77,95,96",
    "status": "OPN",
    "name": "037- Theater"
  },
  {
    "id": "38",
    "district": null,
    "lon": "4.432635000000000000",
    "lat": "51.22015700000000000",
    "bikes": "18",
    "slots": "1",
    "zip": null,
    "address": "Pastorijstraat tov huisnr28",
    "addressNumber": null,
    "nearbyStations": "102,109,113,114",
    "status": "OPN",
    "name": "038- Pastorijstraat"
  },
  {
    "id": "39",
    "district": "1",
    "lon": "4.434095891498593000",
    "lat": "51.21105908944124000",
    "bikes": "20",
    "slots": "16",
    "zip": "2018",
    "address": "Betogingstraat tov3",
    "addressNumber": null,
    "nearbyStations": "9,105,107,132",
    "status": "OPN",
    "name": "039- Koxplein"
  },
  {
    "id": "40",
    "district": "1",
    "lon": "4.396619143599072000",
    "lat": "51.19676193952913000",
    "bikes": "4",
    "slots": "32",
    "zip": "2018",
    "address": "Desguinlei to 246",
    "addressNumber": null,
    "nearbyStations": "10,12,13,89",
    "status": "OPN",
    "name": "040- Desguinlei"
  },
  {
    "id": "41",
    "district": "1",
    "lon": "4.411606000000000000",
    "lat": "51.21080200000000000",
    "bikes": "4",
    "slots": "23",
    "zip": "2018",
    "address": "Van Eycklei\/Edelinckstraat 24 ",
    "addressNumber": null,
    "nearbyStations": "77,79,91,116",
    "status": "OPN",
    "name": "041- Van Eyck"
  },
  {
    "id": "42",
    "district": "1",
    "lon": "4.412070122941341000",
    "lat": "51.20228489249466000",
    "bikes": "11",
    "slots": "8",
    "zip": "2018",
    "address": "Mechelsesteenweg - Ingang Harmoniepark",
    "addressNumber": null,
    "nearbyStations": "29,43,92,93",
    "status": "OPN",
    "name": "042- Harmonie"
  },
  {
    "id": "43",
    "district": null,
    "lon": "4.415281000000000000",
    "lat": "51.20368400000000000",
    "bikes": "11",
    "slots": "19",
    "zip": "2018",
    "address": "Belgi\u00eblei\/Gretrystraat",
    "addressNumber": null,
    "nearbyStations": "42,44,92,93",
    "status": "OPN",
    "name": "043- Gr\u00e9trystraat"
  },
  {
    "id": "44",
    "district": "1",
    "lon": "4.418194000000000000",
    "lat": "51.20572100000000000",
    "bikes": "5",
    "slots": "31",
    "zip": "2000",
    "address": "Belgi\u00eblei 99",
    "addressNumber": null,
    "nearbyStations": "42,43,93,130",
    "status": "OPN",
    "name": "044- Belgielei"
  },
  {
    "id": "45",
    "district": "1",
    "lon": "4.405497597996209000",
    "lat": "51.22688177486824000",
    "bikes": "0",
    "slots": "13",
    "zip": "2000",
    "address": "Oude Leeuwenrui n\u00b0 2",
    "addressNumber": null,
    "nearbyStations": "33,129,134,135",
    "status": "OPN",
    "name": "045- Falconplein"
  },
  {
    "id": "46",
    "district": null,
    "lon": "4.415516549585612000",
    "lat": "51.19910372113264000",
    "bikes": "5",
    "slots": "30",
    "zip": "2600",
    "address": "Grotesteenweg\/Boomgaardstraat",
    "addressNumber": null,
    "nearbyStations": "42,98,99,100",
    "status": "OPN",
    "name": "046- De Merode"
  },
  {
    "id": "47",
    "district": null,
    "lon": "4.423709521960564000",
    "lat": "51.20140582840499000",
    "bikes": "15",
    "slots": "20",
    "zip": "2600",
    "address": "Boomgaardstraat\/Marialei",
    "addressNumber": null,
    "nearbyStations": "22,97,98,130",
    "status": "OPN",
    "name": "047- Militair Hospitaal"
  },
  {
    "id": "48",
    "district": "1",
    "lon": "4.420149000000000000",
    "lat": "51.21729700000000000",
    "bikes": "2",
    "slots": "25",
    "zip": "2018",
    "address": "De Keyserlei",
    "addressNumber": "57",
    "nearbyStations": "1,2,4,24",
    "status": "OPN",
    "name": "048- De Keyserlei 2"
  },
  {
    "id": "49",
    "district": "1",
    "lon": "4.400856169167690000",
    "lat": "51.22585357094437000",
    "bikes": "4",
    "slots": "20",
    "zip": "2000",
    "address": "Sint-Pietersvliet - Tolhuis",
    "addressNumber": null,
    "nearbyStations": "45,50,58,135",
    "status": "OPN",
    "name": "049- Tolhuis"
  },
  {
    "id": "50",
    "district": null,
    "lon": "4.403024090372765000",
    "lat": "51.22373281553696000",
    "bikes": "0",
    "slots": "20",
    "zip": "2000",
    "address": "Sint-Paulusstraat\/ Lange Koepoortstraat",
    "addressNumber": null,
    "nearbyStations": "49,51,56,57",
    "status": "OPN",
    "name": "050- Klapdorp"
  },
  {
    "id": "51",
    "district": null,
    "lon": "4.406112888467821000",
    "lat": "51.22289620751177000",
    "bikes": "21",
    "slots": "3",
    "zip": "2000",
    "address": "Mutsaardplein",
    "addressNumber": null,
    "nearbyStations": "28,50,56,57",
    "status": "OPN",
    "name": "051- Mutsaardplein"
  },
  {
    "id": "52",
    "district": "1",
    "lon": "4.414619531422663000",
    "lat": "51.22583771218511000",
    "bikes": "1",
    "slots": "22",
    "zip": "2000",
    "address": "Itali\u00eblei n\u00b0 10",
    "addressNumber": null,
    "nearbyStations": "33,53,117,127",
    "status": "OPN",
    "name": "052- Waaslandtunnel"
  },
  {
    "id": "53",
    "district": "1",
    "lon": "4.413298397408935000",
    "lat": "51.22465145423593000",
    "bikes": "7",
    "slots": "14",
    "zip": "2000",
    "address": "Paardenmarkt - Kleine Kauwenberg",
    "addressNumber": null,
    "nearbyStations": "33,52,54,117",
    "status": "OPN",
    "name": "053- Paardenmarkt"
  },
  {
    "id": "54",
    "district": "1",
    "lon": "4.412985000366758000",
    "lat": "51.22185543876710000",
    "bikes": "1",
    "slots": "19",
    "zip": "2000",
    "address": "Pieter Van Hobokenstraat n\u00b0 19",
    "addressNumber": null,
    "nearbyStations": "11,27,28,53",
    "status": "OPN",
    "name": "054- Ossenmarkt"
  },
  {
    "id": "55",
    "district": null,
    "lon": "4.428231210627736000",
    "lat": "51.19697723414253000",
    "bikes": "19",
    "slots": "14",
    "zip": "2600",
    "address": "Vredestraat\/Zonnebloemstraat",
    "addressNumber": null,
    "nearbyStations": "7,22,48,61",
    "status": "OPN",
    "name": "055- Zonnebloemstraat"
  },
  {
    "id": "56",
    "district": "1",
    "lon": "4.404587621644557000",
    "lat": "51.22218731074238000",
    "bikes": "0",
    "slots": "30",
    "zip": "2000",
    "address": "Minderbroederrui n\u00b0 46",
    "addressNumber": null,
    "nearbyStations": "50,51,57,60",
    "status": "OPN",
    "name": "056- Minderbroedersrui"
  },
  {
    "id": "57",
    "district": "1",
    "lon": "4.402666666666667000",
    "lat": "51.22154166666667000",
    "bikes": "0",
    "slots": "17",
    "zip": "2000",
    "address": "Wolstraat - Korte Koepoortstraat 2",
    "addressNumber": null,
    "nearbyStations": "50,51,56,60",
    "status": "OPN",
    "name": "057- Wolstraat"
  },
  {
    "id": "58",
    "district": "1",
    "lon": "4.399097050370182000",
    "lat": "51.22438942950193000",
    "bikes": "5",
    "slots": "24",
    "zip": "2000",
    "address": "Jordaenskaai ro Saucierstraat",
    "addressNumber": null,
    "nearbyStations": "49,50,59,135",
    "status": "OPN",
    "name": "058- Noorderterras"
  },
  {
    "id": "59",
    "district": "1",
    "lon": "4.396804494276738000",
    "lat": "51.22109922330606000",
    "bikes": "0",
    "slots": "35",
    "zip": "2000",
    "address": "Ernest Van Dijckkaai ro n\u00b0 13 - Zuiderterras",
    "addressNumber": null,
    "nearbyStations": "17,20,60,64",
    "status": "OPN",
    "name": "059- Het Steen"
  },
  {
    "id": "60",
    "district": "1",
    "lon": "4.400512730484778000",
    "lat": "51.22158761940871000",
    "bikes": "0",
    "slots": "34",
    "zip": "2000",
    "address": "Wisselstraat 9",
    "addressNumber": null,
    "nearbyStations": "17,20,56,57",
    "status": "OPN",
    "name": "060- Grote Markt"
  },
  {
    "id": "61",
    "district": null,
    "lon": "4.425406466971353000",
    "lat": "51.19780966860766000",
    "bikes": "23",
    "slots": "10",
    "zip": "2600",
    "address": "Statiestraat - Victor Jacobslei",
    "addressNumber": null,
    "nearbyStations": "7,21,22,55",
    "status": "OPN",
    "name": "061- Victor Jacobslei"
  },
  {
    "id": "62",
    "district": null,
    "lon": "4.426978000000000000",
    "lat": "51.23182800000000000",
    "bikes": "18",
    "slots": "2",
    "zip": null,
    "address": "Damplein\/Lange lobroekstraat ro n\u00b0 222",
    "addressNumber": null,
    "nearbyStations": "63,118,123,124",
    "status": "OPN",
    "name": "062- Station Dam"
  },
  {
    "id": "63",
    "district": null,
    "lon": "4.431567000000000000",
    "lat": "51.23001400000000000",
    "bikes": "22",
    "slots": "14",
    "zip": null,
    "address": "Lange Lobroekstraat tov huisnr 93",
    "addressNumber": null,
    "nearbyStations": "62,120,121,123",
    "status": "OPN",
    "name": "063- Slachthuis"
  },
  {
    "id": "64",
    "district": "1",
    "lon": "4.394899321136949000",
    "lat": "51.21909214669883000",
    "bikes": "0",
    "slots": "35",
    "zip": "2000",
    "address": "Plantinkaai ro Jansvliet (Zuiderterras)",
    "addressNumber": null,
    "nearbyStations": "17,20,59,65",
    "status": "OPN",
    "name": "064- Zuiderterras"
  },
  {
    "id": "65",
    "district": "1",
    "lon": "4.393691048333439000",
    "lat": "51.21643455232020000",
    "bikes": "11",
    "slots": "18",
    "zip": "2000",
    "address": "Plantinkaai ro n\u00b027",
    "addressNumber": null,
    "nearbyStations": "64,66,70,71",
    "status": "OPN",
    "name": "065- Plantinkaai"
  },
  {
    "id": "66",
    "district": "1",
    "lon": "4.399251391055215000",
    "lat": "51.21708870223401000",
    "bikes": "0",
    "slots": "24",
    "zip": "2000",
    "address": "Drukkerijstraat n\u00b0 26",
    "addressNumber": null,
    "nearbyStations": "17,20,64,67",
    "status": "OPN",
    "name": "066- Modemuseum"
  },
  {
    "id": "67",
    "district": "1",
    "lon": "4.403141962080859000",
    "lat": "51.21577842083218000",
    "bikes": "1",
    "slots": "23",
    "zip": "2000",
    "address": "Oudaan n\u00b0 14",
    "addressNumber": null,
    "nearbyStations": "18,23,36,66",
    "status": "OPN",
    "name": "067- Oudaan"
  },
  {
    "id": "68",
    "district": null,
    "lon": "4.443683000000000000",
    "lat": "51.21457100000000000",
    "bikes": "27",
    "slots": "1",
    "zip": "2140",
    "address": "Turnhoutsebaan\/Stenenbrug ",
    "addressNumber": null,
    "nearbyStations": "69,107,108,132",
    "status": "OPN",
    "name": "068-  Turnhoutsepoort"
  },
  {
    "id": "69",
    "district": null,
    "lon": "4.441964470690549000",
    "lat": "51.21115942144159000",
    "bikes": "10",
    "slots": "25",
    "zip": "2140",
    "address": "Fonteinstraat tov 72",
    "addressNumber": null,
    "nearbyStations": "9,39,68,132",
    "status": "OPN",
    "name": "069- Fonteinstraat"
  },
  {
    "id": "70",
    "district": "1",
    "lon": "4.396344222405702000",
    "lat": "51.21484782149413000",
    "bikes": "0",
    "slots": "30",
    "zip": "2000",
    "address": "Sint Andriesplaats n\u00b0 24",
    "addressNumber": null,
    "nearbyStations": "65,66,71,76",
    "status": "OPN",
    "name": "070- Sint Andries"
  },
  {
    "id": "71",
    "district": "1",
    "lon": "4.392818765521578000",
    "lat": "51.21522882763002000",
    "bikes": "10",
    "slots": "17",
    "zip": "2000",
    "address": "Sint-Michielskaai ro n\u00b0 21",
    "addressNumber": null,
    "nearbyStations": "35,65,70,74",
    "status": "OPN",
    "name": "071- Sint-Michielskaai"
  },
  {
    "id": "72",
    "district": "1",
    "lon": "4.398986182742563000",
    "lat": "51.21187275413007000",
    "bikes": "1",
    "slots": "25",
    "zip": "2000",
    "address": "Kronenburgstraat ro n\u00b0 82",
    "addressNumber": null,
    "nearbyStations": "16,73,74,76",
    "status": "OPN",
    "name": "072- Tropisch Instituut"
  },
  {
    "id": "73",
    "district": null,
    "lon": "4.403718000000000000",
    "lat": "51.21230900000000000",
    "bikes": "10",
    "slots": "25",
    "zip": "2000",
    "address": "Maarschalk Gerardstraat\/schermersstraat",
    "addressNumber": null,
    "nearbyStations": "72,77,79,84",
    "status": "OPN",
    "name": "073- Maarschalk G\u00e9rard"
  },
  {
    "id": "74",
    "district": "1",
    "lon": "4.394022819445082000",
    "lat": "51.21233419740909000",
    "bikes": "2",
    "slots": "14",
    "zip": "2000",
    "address": "Scheldestraat - Kronenburgstraat",
    "addressNumber": null,
    "nearbyStations": "16,34,35,72",
    "status": "OPN",
    "name": "074- Vismijn"
  },
  {
    "id": "75",
    "district": "1",
    "lon": "4.390930567194764000",
    "lat": "51.20976696683801000",
    "bikes": "13",
    "slots": "9",
    "zip": "2000",
    "address": "Vlaamsekaai 35",
    "addressNumber": null,
    "nearbyStations": "15,34,35,82",
    "status": "OPN",
    "name": "075- Vlaamsekaai"
  },
  {
    "id": "76",
    "district": null,
    "lon": "4.398093000000000000",
    "lat": "51.21403500000000000",
    "bikes": "0",
    "slots": "24",
    "zip": "2000",
    "address": "Nationalestraat\/Lange Vlierstraat",
    "addressNumber": null,
    "nearbyStations": "70,71,72,74",
    "status": "OPN",
    "name": "076- Prekersplein"
  },
  {
    "id": "77",
    "district": null,
    "lon": "4.409466000000000000",
    "lat": "51.21275300000000000",
    "bikes": "0",
    "slots": "36",
    "zip": "2000",
    "address": "Frankrijklei - Blauwtorenplein",
    "addressNumber": null,
    "nearbyStations": "37,41,79,96",
    "status": "OPN",
    "name": "077- Blauwtorenplein"
  },
  {
    "id": "78",
    "district": "1",
    "lon": "4.403011521639670000",
    "lat": "51.20920317182867000",
    "bikes": "7",
    "slots": "19",
    "zip": "2000",
    "address": "Britselei n\u00b0 82",
    "addressNumber": null,
    "nearbyStations": "16,72,83,91",
    "status": "OPN",
    "name": "078- Oud Gerechtshof"
  },
  {
    "id": "79",
    "district": "1",
    "lon": "4.407260707520346000",
    "lat": "51.21103450617727000",
    "bikes": "0",
    "slots": "23",
    "zip": "2000",
    "address": "Britselei - Mechelsesteenweg",
    "addressNumber": null,
    "nearbyStations": "41,73,77,91",
    "status": "OPN",
    "name": "079- Nationale Bank"
  },
  {
    "id": "80",
    "district": null,
    "lon": "4.393389834019567000",
    "lat": "51.20607381800583000",
    "bikes": "28",
    "slots": "7",
    "zip": null,
    "address": "Amerikalei\/Graaf Van Hoornestraat",
    "addressNumber": null,
    "nearbyStations": "15,83,85,94",
    "status": "OPN",
    "name": "080- Montigny"
  },
  {
    "id": "81",
    "district": "1",
    "lon": "4.387671971509639000",
    "lat": "51.20468073203386000",
    "bikes": "17",
    "slots": "10",
    "zip": "2000",
    "address": "Bolivarplaats rechts van het gerechtsgebouw",
    "addressNumber": null,
    "nearbyStations": "80,82,86,94",
    "status": "OPN",
    "name": "081- Justitiepaleis"
  },
  {
    "id": "82",
    "district": "1",
    "lon": "4.387372992419973000",
    "lat": "51.20877460178484000",
    "bikes": "13",
    "slots": "7",
    "zip": "2000",
    "address": "Verviersstraat - Waalsekaai",
    "addressNumber": null,
    "nearbyStations": "34,35,74,75",
    "status": "OPN",
    "name": "082- Fotografiemuseum"
  },
  {
    "id": "83",
    "district": "1",
    "lon": "4.398509639357570000",
    "lat": "51.20775287832413000",
    "bikes": "6",
    "slots": "21",
    "zip": "2000",
    "address": "Amerikalei n\u00b0 82",
    "addressNumber": null,
    "nearbyStations": "15,16,80,85",
    "status": "OPN",
    "name": "083- Brederode"
  },
  {
    "id": "84",
    "district": "1",
    "lon": "4.404966647429536000",
    "lat": "51.21344144039645000",
    "bikes": "3",
    "slots": "18",
    "zip": "2000",
    "address": "Lange Gasthuisstraat ro n\u00b0 3",
    "addressNumber": null,
    "nearbyStations": "67,73,77,79",
    "status": "OPN",
    "name": "084- Elzenveld"
  },
  {
    "id": "85",
    "district": "1",
    "lon": "4.398812741627194000",
    "lat": "51.20583236630190000",
    "bikes": "23",
    "slots": "11",
    "zip": "2018",
    "address": "Boudewijnsstraat tegenover n\u00b0 19-21",
    "addressNumber": null,
    "nearbyStations": "15,80,83,94",
    "status": "OPN",
    "name": "085- Den Bell"
  },
  {
    "id": "86",
    "district": "1",
    "lon": "4.392348000000000000",
    "lat": "51.20334900000000000",
    "bikes": "9",
    "slots": "11",
    "zip": "2018",
    "address": "Broederminstraat 59",
    "addressNumber": null,
    "nearbyStations": "12,81,87,94",
    "status": "OPN",
    "name": "086- Troonplaats"
  },
  {
    "id": "87",
    "district": "1",
    "lon": "4.394213916060354000",
    "lat": "51.20073119866322000",
    "bikes": "11",
    "slots": "10",
    "zip": "2018",
    "address": "Lange Elzenstraat n\u00b0 56",
    "addressNumber": null,
    "nearbyStations": "10,12,40,86",
    "status": "OPN",
    "name": "087- Lange Elzen"
  },
  {
    "id": "88",
    "district": "1",
    "lon": "4.402212232689625000",
    "lat": "51.20114051545752000",
    "bikes": "19",
    "slots": "2",
    "zip": "2018",
    "address": "Van Trierstraat - Haantjeslei",
    "addressNumber": null,
    "nearbyStations": "14,29,89,90",
    "status": "OPN",
    "name": "088- Haantjeslei"
  },
  {
    "id": "89",
    "district": "1",
    "lon": "4.402230221840753000",
    "lat": "51.19842591074800000",
    "bikes": "12",
    "slots": "7",
    "zip": "2018",
    "address": "Van Schoonbekestraat - Markgravelei",
    "addressNumber": null,
    "nearbyStations": "13,14,40,88",
    "status": "OPN",
    "name": "089- Hof van Leysen"
  },
  {
    "id": "90",
    "district": "1",
    "lon": "4.404774275762020000",
    "lat": "51.20454667572269000",
    "bikes": "15",
    "slots": "3",
    "zip": "2018",
    "address": "Vinkenstraat ro n\u00b0 7",
    "addressNumber": null,
    "nearbyStations": "29,88,91,92",
    "status": "OPN",
    "name": "090- Ballaarstraat"
  },
  {
    "id": "91",
    "district": "1",
    "lon": "4.408297423288219000",
    "lat": "51.20882346376338000",
    "bikes": "13",
    "slots": "5",
    "zip": "2018",
    "address": "Mechelsesteenweg n\u00b0 66",
    "addressNumber": null,
    "nearbyStations": "41,73,78,79",
    "status": "OPN",
    "name": "091- Hemelstraat"
  },
  {
    "id": "92",
    "district": "1",
    "lon": "4.410634013269819000",
    "lat": "51.20450961188838000",
    "bikes": "10",
    "slots": "9",
    "zip": "2018",
    "address": "Mechelsesteenweg n\u00b0 180",
    "addressNumber": null,
    "nearbyStations": "29,42,43,93",
    "status": "OPN",
    "name": "092- Sint-Thomas"
  },
  {
    "id": "93",
    "district": "1",
    "lon": "4.413560000000000000",
    "lat": "51.20541000000000000",
    "bikes": "15",
    "slots": "14",
    "zip": "2000",
    "address": "sint vincentius",
    "addressNumber": "tov 61",
    "nearbyStations": "42,43,44,92",
    "status": "OPN",
    "name": "093- Sint Vincentius"
  },
  {
    "id": "94",
    "district": "1",
    "lon": "4.396100000000000000",
    "lat": "51.20480000000000000",
    "bikes": "18",
    "slots": "12",
    "zip": "2018",
    "address": "Paleisstraat ",
    "addressNumber": "147",
    "nearbyStations": "15,80,83,85",
    "status": "OPN",
    "name": "094- Paleisstraat"
  },
  {
    "id": "95",
    "district": "1",
    "lon": "4.416319522723214000",
    "lat": "51.21415140431763000",
    "bikes": "8",
    "slots": "20",
    "zip": "2018",
    "address": "Quinten Mathijslei n\u00b0 12",
    "addressNumber": null,
    "nearbyStations": "24,37,96,116",
    "status": "OPN",
    "name": "095- Quinten Matsijslei"
  },
  {
    "id": "96",
    "district": "1",
    "lon": "4.413109498483254000",
    "lat": "51.21328214183770000",
    "bikes": "3",
    "slots": "21",
    "zip": "2018",
    "address": "Rubenslei \u2013 Louiza \u2013 Marialei ",
    "addressNumber": null,
    "nearbyStations": "37,41,77,95",
    "status": "OPN",
    "name": "096- Stadspark"
  },
  {
    "id": "97",
    "district": "1",
    "lon": "4.428828981041583000",
    "lat": "51.20277981255939000",
    "bikes": "7",
    "slots": "14",
    "zip": "2018",
    "address": "Cuperusstraat ro Lange Leemstraat",
    "addressNumber": null,
    "nearbyStations": "8,22,47,106",
    "status": "OPN",
    "name": "097- Cuperus"
  },
  {
    "id": "98",
    "district": "1",
    "lon": "4.418930242293162000",
    "lat": "51.19983991136949000",
    "bikes": "17",
    "slots": "4",
    "zip": "2018",
    "address": "Boomgaardstraat 31",
    "addressNumber": null,
    "nearbyStations": "42,43,46,47",
    "status": "OPN",
    "name": "098- Haringrode"
  },
  {
    "id": "99",
    "district": "1",
    "lon": "4.410264715254410000",
    "lat": "51.19706006771547000",
    "bikes": "20",
    "slots": "2",
    "zip": "2018",
    "address": "Generaal Lemanstraat - Karel Oomsstraat",
    "addressNumber": null,
    "nearbyStations": "14,31,46,131",
    "status": "OPN",
    "name": "099- Generaal Leman"
  },
  {
    "id": "100",
    "district": "1",
    "lon": "4.416600409370835000",
    "lat": "51.19485112984604000",
    "bikes": "12",
    "slots": "17",
    "zip": "2600",
    "address": "Frans Van Hombeeckplein 25",
    "addressNumber": null,
    "nearbyStations": "21,46,103,131",
    "status": "OPN",
    "name": "100- Van Hombeeckplein"
  },
  {
    "id": "101",
    "district": null,
    "lon": "4.432000000000000000",
    "lat": "51.22410000000000000",
    "bikes": "15",
    "slots": "21",
    "zip": "2060",
    "address": "Lange Stuivenbergstraat ",
    "addressNumber": "tov 90",
    "nearbyStations": "102,114,121,122",
    "status": "OPN",
    "name": "101- Premetro Handel"
  },
  {
    "id": "102",
    "district": null,
    "lon": "4.430256657794283000",
    "lat": "51.22246101471936000",
    "bikes": "11",
    "slots": "25",
    "zip": "2060",
    "address": "Duinstraat",
    "addressNumber": null,
    "nearbyStations": "101,109,114,115",
    "status": "OPN",
    "name": "102- Duinstraat"
  },
  {
    "id": "103",
    "district": "1",
    "lon": "4.421462000000000000",
    "lat": "51.19256300000000000",
    "bikes": "5",
    "slots": "30",
    "zip": "2600",
    "address": "Uitbreidingsstraat 184",
    "addressNumber": null,
    "nearbyStations": "21,55,100,131",
    "status": "OPN",
    "name": "103- Oude Kerk Berchem"
  },
  {
    "id": "104",
    "district": "1",
    "lon": "4.424294009067518000",
    "lat": "51.20820781231681000",
    "bikes": "17",
    "slots": "0",
    "zip": "2018",
    "address": "Provinciestraat - Mercatorstraat",
    "addressNumber": null,
    "nearbyStations": "6,110,111,116",
    "status": "OPN",
    "name": "104- Mercator"
  },
  {
    "id": "105",
    "district": "1",
    "lon": "4.432625218239298000",
    "lat": "51.20902773858518000",
    "bikes": "10",
    "slots": "10",
    "zip": "2018",
    "address": "Plantin Moretuslei n\u00b0 158",
    "addressNumber": null,
    "nearbyStations": "9,106,110,111",
    "status": "OPN",
    "name": "105- Plantin en Moretus"
  },
  {
    "id": "106",
    "district": "1",
    "lon": "4.432210218293591000",
    "lat": "51.20560903628581000",
    "bikes": "5",
    "slots": "16",
    "zip": "2600",
    "address": "Draakplaats",
    "addressNumber": null,
    "nearbyStations": "8,97,110,112",
    "status": "OPN",
    "name": "106- Draakplaats"
  },
  {
    "id": "107",
    "district": "1",
    "lon": "4.433276632960023000",
    "lat": "51.21366084739251000",
    "bikes": "1",
    "slots": "17",
    "zip": "2140",
    "address": "Moorkensplein ro n\u00b0 33A",
    "addressNumber": null,
    "nearbyStations": "30,39,105,132",
    "status": "OPN",
    "name": "107- Moorkensplein"
  },
  {
    "id": "108",
    "district": null,
    "lon": "4.439968641906528000",
    "lat": "51.21602303185675000",
    "bikes": "15",
    "slots": "7",
    "zip": "2140",
    "address": "Delaraystraat ro n\u00b0 13",
    "addressNumber": null,
    "nearbyStations": "30,68,107,113",
    "status": "OPN",
    "name": "108- Krugerpark"
  },
  {
    "id": "109",
    "district": "1",
    "lon": "4.430513466501682000",
    "lat": "51.21857958532913000",
    "bikes": "16",
    "slots": "2",
    "zip": "2060",
    "address": "Kerkstraat n\u00b0 58",
    "addressNumber": null,
    "nearbyStations": "30,38,108,113",
    "status": "OPN",
    "name": "109- Kerkstraat"
  },
  {
    "id": "110",
    "district": null,
    "lon": "4.430101723012998000",
    "lat": "51.20694317094480000",
    "bikes": "2",
    "slots": "31",
    "zip": "2018",
    "address": "Dageraadplaats",
    "addressNumber": null,
    "nearbyStations": "104,105,106,111",
    "status": "OPN",
    "name": "110- Dageraadplaats"
  },
  {
    "id": "111",
    "district": "1",
    "lon": "4.427400000000000000",
    "lat": "51.21020000000000000",
    "bikes": "31",
    "slots": "5",
    "zip": "2018",
    "address": "Plantin en Moretuslei",
    "addressNumber": "10",
    "nearbyStations": "6,104,105,110",
    "status": "OPN",
    "name": "111- Van Der Meyden"
  },
  {
    "id": "112",
    "district": null,
    "lon": "4.436840753419609000",
    "lat": "51.20344626609609000",
    "bikes": "18",
    "slots": "17",
    "zip": "2600",
    "address": "Uitbreidingstraat",
    "addressNumber": "578",
    "nearbyStations": "8,22,97,106",
    "status": "OPN",
    "name": "112- Pretoriastraat"
  },
  {
    "id": "113",
    "district": "1",
    "lon": "4.438622043829003000",
    "lat": "51.21860899599756000",
    "bikes": "18",
    "slots": "0",
    "zip": "2140",
    "address": "Vercammenstraat - Helmstraat",
    "addressNumber": null,
    "nearbyStations": "30,38,108,109",
    "status": "OPN",
    "name": "113- Helmstraat"
  },
  {
    "id": "114",
    "district": "1",
    "lon": "4.433777992711939000",
    "lat": "51.22205311877087000",
    "bikes": "11",
    "slots": "10",
    "zip": "2060",
    "address": "Pesthofstraat ro n\u00b0 5",
    "addressNumber": null,
    "nearbyStations": "38,101,102,122",
    "status": "OPN",
    "name": "114- ZNA Stuivenberg"
  },
  {
    "id": "115",
    "district": "1",
    "lon": "4.424183815656882000",
    "lat": "51.22275442340224000",
    "bikes": "5",
    "slots": "16",
    "zip": "2060",
    "address": "Sint Elisabethstraat - Greinstraat",
    "addressNumber": null,
    "nearbyStations": "32,101,102,125",
    "status": "OPN",
    "name": "115- Metro Elisabeth"
  },
  {
    "id": "116",
    "district": "1",
    "lon": "4.417215972702701000",
    "lat": "51.21009600631509000",
    "bikes": "18",
    "slots": "0",
    "zip": "2018",
    "address": "Van Eycklei ro n\u00b0 48",
    "addressNumber": null,
    "nearbyStations": "5,6,41,95",
    "status": "OPN",
    "name": "116- Loosplaats"
  },
  {
    "id": "117",
    "district": "1",
    "lon": "4.418404418360266000",
    "lat": "51.22541936981867000",
    "bikes": "25",
    "slots": "5",
    "zip": "2060",
    "address": "Sint Jansplein ro n\u00b0 17",
    "addressNumber": null,
    "nearbyStations": "52,53,118,125",
    "status": "OPN",
    "name": "117- Sint Jansplein"
  },
  {
    "id": "118",
    "district": "1",
    "lon": "4.422247361006011000",
    "lat": "51.22714208703280000",
    "bikes": "17",
    "slots": "4",
    "zip": "2060",
    "address": "Trapstraat n\u00b0 10",
    "addressNumber": null,
    "nearbyStations": "123,124,125,126",
    "status": "OPN",
    "name": "118- Dambrugge"
  },
  {
    "id": "119",
    "district": null,
    "lon": "4.425367882174795000",
    "lat": "51.21537176619199000",
    "bikes": "19",
    "slots": "3",
    "zip": "2018",
    "address": "Provinciestraat (plein)",
    "addressNumber": null,
    "nearbyStations": "1,2,3,5",
    "status": "OPN",
    "name": "119- Ploeg"
  },
  {
    "id": "120",
    "district": null,
    "lon": "4.439042000000000000",
    "lat": "51.22753200000000000",
    "bikes": "10",
    "slots": "14",
    "zip": "2060",
    "address": "Schijnpoortweg ",
    "addressNumber": "25",
    "nearbyStations": "63,101,121,122",
    "status": "OPN",
    "name": "120- Eendracht"
  },
  {
    "id": "121",
    "district": "1",
    "lon": "4.430533809533261000",
    "lat": "51.22746041947940000",
    "bikes": "6",
    "slots": "24",
    "zip": "2060",
    "address": "Stuivenbergplein ro n\u00b0 36-1",
    "addressNumber": null,
    "nearbyStations": "63,101,122,123",
    "status": "OPN",
    "name": "121- Stuivenbergplein"
  },
  {
    "id": "122",
    "district": "1",
    "lon": "4.436567207739302000",
    "lat": "51.22470882205263000",
    "bikes": "8",
    "slots": "13",
    "zip": "2060",
    "address": "Pothoekstraat ro n\u00b0 124",
    "addressNumber": null,
    "nearbyStations": "101,114,120,121",
    "status": "OPN",
    "name": "122- Schijnpoort"
  },
  {
    "id": "123",
    "district": "1",
    "lon": "4.424935536896917000",
    "lat": "51.22903876862169000",
    "bikes": "17",
    "slots": "0",
    "zip": "2060",
    "address": "Vis\u00e9straat 16",
    "addressNumber": null,
    "nearbyStations": "62,63,118,124",
    "status": "OPN",
    "name": "123- Park Spoor Noord 2"
  },
  {
    "id": "124",
    "district": "1",
    "lon": "4.419613000000000000",
    "lat": "51.22996200000000000",
    "bikes": "13",
    "slots": "14",
    "zip": "2060",
    "address": "Ellermansstraat \u2013 Fuggerstraat",
    "addressNumber": null,
    "nearbyStations": "118,123,126,127",
    "status": "OPN",
    "name": "124- Park Spoor Noord 1"
  },
  {
    "id": "125",
    "district": null,
    "lon": "4.423474198206600000",
    "lat": "51.22595564552162000",
    "bikes": "15",
    "slots": "21",
    "zip": "2060",
    "address": "Sint-Norbertusstraat\/Van Kerckhovenstraat",
    "addressNumber": null,
    "nearbyStations": "115,117,118,123",
    "status": "OPN",
    "name": "125- Sint-Norbertus"
  },
  {
    "id": "126",
    "district": null,
    "lon": "4.419015786408293000",
    "lat": "51.22805003403131000",
    "bikes": "29",
    "slots": "6",
    "zip": "2060",
    "address": "Lange Dijkstraat 46\/ Van Aerdtstraat",
    "addressNumber": null,
    "nearbyStations": "118,123,124,125",
    "status": "OPN",
    "name": "126- Lange Dijk"
  },
  {
    "id": "127",
    "district": "1",
    "lon": "4.413307095780299000",
    "lat": "51.22857844475766000",
    "bikes": "20",
    "slots": "10",
    "zip": "2000",
    "address": "Itali\u00eblei n\u00b0 4",
    "addressNumber": null,
    "nearbyStations": "52,129,133",
    "status": "OPN",
    "name": "127- FOD Financi\u00ebn"
  },
  {
    "id": "128",
    "district": null,
    "lon": "4.412757000000000000",
    "lat": "51.23046600000000000",
    "bikes": "18",
    "slots": "10",
    "zip": "2000",
    "address": "hoek Itali\u00eblei\/Londenstraat",
    "addressNumber": "9",
    "nearbyStations": null,
    "status": "OPN",
    "name": "128- Parkbrug"
  },
  {
    "id": "129",
    "district": "1",
    "lon": "4.408800000000000000",
    "lat": "51.22840000000000000",
    "bikes": "0",
    "slots": "36",
    "zip": "2000",
    "address": "Godefriduskaai Qpark",
    "addressNumber": null,
    "nearbyStations": "45,133,134,137",
    "status": "OPN",
    "name": "129- Godefriduskaai"
  },
  {
    "id": "130",
    "district": "1",
    "lon": "4.420800000000000000",
    "lat": "51.20380000000000000",
    "bikes": "3",
    "slots": "15",
    "zip": "2000",
    "address": "Lamorini\u00e8restraat",
    "addressNumber": "150",
    "nearbyStations": "43,44,47,97",
    "status": "OPN",
    "name": "130- Lamoriniere"
  },
  {
    "id": "131",
    "district": "1",
    "lon": "4.412152929349810000",
    "lat": "51.19375625338252000",
    "bikes": "5",
    "slots": "15",
    "zip": "2600",
    "address": "De wittestraat - Generaal Lemanstraat",
    "addressNumber": null,
    "nearbyStations": "21,31,99,100",
    "status": "OPN",
    "name": "131- De Wittestraat"
  },
  {
    "id": "132",
    "district": "1",
    "lon": "4.437785965534147000",
    "lat": "51.21177359796551000",
    "bikes": "12",
    "slots": "6",
    "zip": "2140",
    "address": "Maarschalk Montgomeryplein ro n\u00b0 4",
    "addressNumber": null,
    "nearbyStations": "9,39,69,107",
    "status": "OPN",
    "name": "132- Montgomery"
  },
  {
    "id": "133",
    "district": "1",
    "lon": "4.411349321449047000",
    "lat": "51.22958146712338000",
    "bikes": "17",
    "slots": "7",
    "zip": "2000",
    "address": "Entrepotkaai n\u00b0 1",
    "addressNumber": null,
    "nearbyStations": "127,129,134,137",
    "status": "OPN",
    "name": "133- Willemdok"
  },
  {
    "id": "134",
    "district": "1",
    "lon": "4.405728642058911000",
    "lat": "51.22811203740126000",
    "bikes": "14",
    "slots": "10",
    "zip": "2000",
    "address": "Godefriduskaai - Oostendekaai",
    "addressNumber": null,
    "nearbyStations": "45,129,133,137",
    "status": "OPN",
    "name": "134- MAS"
  },
  {
    "id": "135",
    "district": "1",
    "lon": "4.402027750000000000",
    "lat": "51.22797085000000000",
    "bikes": "4",
    "slots": "24",
    "zip": "2000",
    "address": "Sint-Aldegondiskaai",
    "addressNumber": "10",
    "nearbyStations": "45,49,50,58",
    "status": "OPN",
    "name": "135- Loodswezen"
  },
  {
    "id": "136",
    "district": null,
    "lon": "4.420999000000000000",
    "lat": "51.23134500000000000",
    "bikes": "2",
    "slots": "34",
    "zip": "2060",
    "address": "Hardenvoort",
    "addressNumber": null,
    "nearbyStations": "62,123,124,126",
    "status": "OPN",
    "name": "136- Spoor Noord Skatebowl"
  },
  {
    "id": "137",
    "district": null,
    "lon": "4.405748000000000000",
    "lat": "51.22977900000000000",
    "bikes": "32",
    "slots": "6",
    "zip": "2000",
    "address": "napeleonkaai\/Nassaustraat ",
    "addressNumber": null,
    "nearbyStations": "129,133,134,138",
    "status": "OPN",
    "name": "137- Sint-Laureiskaai"
  },
  {
    "id": "138",
    "district": null,
    "lon": "4.403552339080501000",
    "lat": "51.23119852755470000",
    "bikes": "7",
    "slots": "16",
    "zip": "2000",
    "address": "Amsterdamstraat",
    "addressNumber": null,
    "nearbyStations": "133,134,137",
    "status": "OPN",
    "name": "138- Amsterdamstraat"
  },
  {
    "id": "140",
    "district": null,
    "lon": "4.391627018623872000",
    "lat": "51.23142266636172000",
    "bikes": "22",
    "slots": "14",
    "zip": "2050",
    "address": "Goethestraat\/Thoneth",
    "addressNumber": "Goethestraat\/Thoneth",
    "nearbyStations": "141,142,144,146",
    "status": "OPN",
    "name": "140- Jachthaven LO"
  },
  {
    "id": "141",
    "district": null,
    "lon": "4.386875385241651000",
    "lat": "51.23525257003270000",
    "bikes": "11",
    "slots": "25",
    "zip": "2050",
    "address": "Gloriantlaan\/Kastanjedreef",
    "addressNumber": null,
    "nearbyStations": "140,142,144,146",
    "status": "OPN",
    "name": "141- Sint-Anna"
  },
  {
    "id": "142",
    "district": null,
    "lon": "4.382542133810354000",
    "lat": "51.23343998005640000",
    "bikes": "13",
    "slots": "22",
    "zip": "2050",
    "address": "Esmoreitlaan",
    "addressNumber": "25",
    "nearbyStations": "141,144,145,146",
    "status": "OPN",
    "name": "142- Esmoreitlaan"
  },
  {
    "id": "143",
    "district": null,
    "lon": "4.386179000000000000",
    "lat": "51.23114600000000000",
    "bikes": "16",
    "slots": "8",
    "zip": "2050",
    "address": "Gloriantlaan\/Melis Stokelaan 24  ",
    "addressNumber": null,
    "nearbyStations": "140,141,142,146",
    "status": "OPN",
    "name": "143- Melis Stokelaan"
  },
  {
    "id": "144",
    "district": null,
    "lon": "4.378669800971490000",
    "lat": "51.23126710565874000",
    "bikes": "13",
    "slots": "23",
    "zip": "2050",
    "address": "August Vermeylenlaan",
    "addressNumber": "tov 7",
    "nearbyStations": "141,142,145,146",
    "status": "OPN",
    "name": "144- August Vermeylenlaan"
  },
  {
    "id": "145",
    "district": null,
    "lon": "4.378550835716943000",
    "lat": "51.22784221343208000",
    "bikes": "15",
    "slots": "9",
    "zip": "2050",
    "address": "August Vermeylenlaan\/ Charles de Costerlaan",
    "addressNumber": null,
    "nearbyStations": "142,144,146,147",
    "status": "OPN",
    "name": "145- De Coster"
  },
  {
    "id": "146",
    "district": null,
    "lon": "4.385890517853628000",
    "lat": "51.22777877150836000",
    "bikes": "16",
    "slots": "17",
    "zip": "2050",
    "address": "Gloriantlaan\/Reinaartlaan",
    "addressNumber": null,
    "nearbyStations": "140,144,145,147",
    "status": "OPN",
    "name": "146- Reinaartlaan"
  },
  {
    "id": "147",
    "district": null,
    "lon": "4.377876746950817000",
    "lat": "51.22391870297562000",
    "bikes": "15",
    "slots": "9",
    "zip": "2050",
    "address": "Halewijnlaan",
    "addressNumber": "86",
    "nearbyStations": "148,150,151,152",
    "status": "OPN",
    "name": "147- Halewijnlaan"
  },
  {
    "id": "148",
    "district": null,
    "lon": "4.386220088490688000",
    "lat": "51.22319820902703000",
    "bikes": "16",
    "slots": "19",
    "zip": "2050",
    "address": "Frederik Van Eedenstraa",
    "addressNumber": " tov nr 4",
    "nearbyStations": "146,147,149,150",
    "status": "OPN",
    "name": "148- Verhaerenlaan"
  },
  {
    "id": "149",
    "district": null,
    "lon": "4.386331953024964000",
    "lat": "51.22061309991433000",
    "bikes": "4",
    "slots": "32",
    "zip": "2050",
    "address": "Blancefloerlaan tov Frederik van Eedenplein",
    "addressNumber": null,
    "nearbyStations": "148,150,151,153",
    "status": "OPN",
    "name": "149- Van Eedenplein"
  },
  {
    "id": "150",
    "district": null,
    "lon": "4.381723278952854000",
    "lat": "51.22007348867427000",
    "bikes": "4",
    "slots": "20",
    "zip": "2050",
    "address": "Waterhoenlaan",
    "addressNumber": "12",
    "nearbyStations": "149,151,152,153",
    "status": "OPN",
    "name": "150- Waterhoenlaan"
  },
  {
    "id": "151",
    "district": null,
    "lon": "4.378407092993419000",
    "lat": "51.22031300886957000",
    "bikes": "19",
    "slots": "16",
    "zip": "2050",
    "address": "Blancefloerlaan\/Halewijnlaan",
    "addressNumber": null,
    "nearbyStations": "149,150,152,153",
    "status": "OPN",
    "name": "151- Van Cauwelaert"
  },
  {
    "id": "152",
    "district": null,
    "lon": "4.375590099454385000",
    "lat": "51.22007304015533000",
    "bikes": "20",
    "slots": "13",
    "zip": "2050",
    "address": "Blancefloerlaan",
    "addressNumber": "161",
    "nearbyStations": "147,149,150,151",
    "status": "OPN",
    "name": "152- Blancefloerlaan"
  },
  {
    "id": "153",
    "district": null,
    "lon": "4.385706443546232000",
    "lat": "51.21852860322108000",
    "bikes": "15",
    "slots": "21",
    "zip": "2050",
    "address": "Beatrijslaan",
    "addressNumber": "42",
    "nearbyStations": "148,149,150,151",
    "status": "OPN",
    "name": "153- Beatrijslaan"
  },
  {
    "id": "154",
    "district": null,
    "lon": "4.444364000000000000",
    "lat": "51.21906800000000000",
    "bikes": "19",
    "slots": "7",
    "zip": "2140",
    "address": "Terloplein",
    "addressNumber": null,
    "nearbyStations": "68,108,113,122",
    "status": "OPN",
    "name": "154- Terloplein"
  },
  {
    "id": "155",
    "district": null,
    "lon": "4.445555000000000000",
    "lat": "51.21583400000000000",
    "bikes": "13",
    "slots": "10",
    "zip": "2140",
    "address": "Statielei",
    "addressNumber": "33",
    "nearbyStations": "68,108,113,154",
    "status": "OPN",
    "name": "155- Statielei"
  },
  {
    "id": "157",
    "district": null,
    "lon": "4.421580000000000000",
    "lat": "51.19250200000000000",
    "bikes": "16",
    "slots": "19",
    "zip": "2600",
    "address": "Binnensingel ",
    "addressNumber": "67",
    "nearbyStations": "21,61,100,103",
    "status": "OPN",
    "name": "157- Berchem Kerk"
  },
  {
    "id": "158",
    "district": null,
    "lon": "4.398386000000000000",
    "lat": "51.20192600000000000",
    "bikes": "16",
    "slots": "18",
    "zip": "2018",
    "address": "Zuidervelodroom",
    "addressNumber": null,
    "nearbyStations": "87,88,94,159",
    "status": "OPN",
    "name": "158- Zuidervelodroom"
  },
  {
    "id": "159",
    "district": null,
    "lon": "4.399275000000000000",
    "lat": "51.20559600000000000",
    "bikes": "12",
    "slots": "11",
    "zip": "2018",
    "address": "Boudewijnsstraat",
    "addressNumber": null,
    "nearbyStations": "83,85,90,94",
    "status": "OPN",
    "name": "159- Den Bell 2"
  },
  {
    "id": "202",
    "district": null,
    "lon": "4.421638000000000000",
    "lat": "51.25727200000000000",
    "bikes": "16",
    "slots": "20",
    "zip": "2030",
    "address": "Dublinstraat",
    "addressNumber": "2",
    "nearbyStations": "209,211,214,221",
    "status": "OPN",
    "name": "202- Squarepark"
  },
  {
    "id": "203",
    "district": null,
    "lon": "4.423168000000000000",
    "lat": "51.25361100000000000",
    "bikes": "11",
    "slots": "23",
    "zip": "2030",
    "address": "Venezuelastraat",
    "addressNumber": "6",
    "nearbyStations": "202,206,210,214",
    "status": "OPN",
    "name": "203- Venezuelastraat"
  },
  {
    "id": "204",
    "district": null,
    "lon": "4.420901000000000000",
    "lat": "51.24996400000000000",
    "bikes": "9",
    "slots": "26",
    "zip": "2030",
    "address": "Noorderlaan",
    "addressNumber": "104",
    "nearbyStations": "203,205,206,221",
    "status": "OPN",
    "name": "204- Luchtbal winkelcentrum"
  },
  {
    "id": "205",
    "district": null,
    "lon": "4.414339000000000000",
    "lat": "51.24478100000000000",
    "bikes": "25",
    "slots": "11",
    "zip": "2030",
    "address": "Groenendaallaan",
    "addressNumber": "397",
    "nearbyStations": "204,206,221,303",
    "status": "OPN",
    "name": "205- Kinepolis"
  },
  {
    "id": "206",
    "district": null,
    "lon": "4.423089000000000000",
    "lat": "51.24450200000000000",
    "bikes": "3",
    "slots": "26",
    "zip": "2030",
    "address": "Bermstraat",
    "addressNumber": "381",
    "nearbyStations": "203,214,221,303",
    "status": "OPN",
    "name": "206- Station Luchtbal"
  },
  {
    "id": "207",
    "district": null,
    "lon": "4.463693000000000000",
    "lat": "51.25364600000000000",
    "bikes": "17",
    "slots": "19",
    "zip": "2170",
    "address": "Van Praetlei",
    "addressNumber": "252",
    "nearbyStations": "208,213,216,218",
    "status": "OPN",
    "name": "207- Winkelstap"
  },
  {
    "id": "208",
    "district": null,
    "lon": "4.454690000000000000",
    "lat": "51.25451000000000000",
    "bikes": "9",
    "slots": "27",
    "zip": "2170",
    "address": "Ringlaan",
    "addressNumber": null,
    "nearbyStations": "207,209,213,217",
    "status": "OPN",
    "name": "208- Ringlaan Atheneum"
  },
  {
    "id": "209",
    "district": null,
    "lon": "4.447149000000000000",
    "lat": "51.25644000000000000",
    "bikes": "11",
    "slots": "25",
    "zip": "2170",
    "address": "Korte Bremstraat",
    "addressNumber": null,
    "nearbyStations": "208,210,212,213",
    "status": "OPN",
    "name": "209- Melgeshof"
  },
  {
    "id": "210",
    "district": null,
    "lon": "4.435762000000000000",
    "lat": "51.25522800000000000",
    "bikes": "19",
    "slots": "16",
    "zip": "2170",
    "address": "Maantjessteenweg",
    "addressNumber": null,
    "nearbyStations": "209,211,212,213",
    "status": "OPN",
    "name": "210- Maantjessteenweg"
  },
  {
    "id": "211",
    "district": null,
    "lon": "4.437315000000000000",
    "lat": "51.25131200000000000",
    "bikes": "5",
    "slots": "31",
    "zip": "2170",
    "address": "Rodeloopstraat",
    "addressNumber": "Rodeloopstraat",
    "nearbyStations": "210,212,214,215",
    "status": "OPN",
    "name": "211- Cultuurcentrum"
  },
  {
    "id": "212",
    "district": null,
    "lon": "4.442306000000000000",
    "lat": "51.25090900000000000",
    "bikes": "10",
    "slots": "24",
    "zip": "2170",
    "address": "Rodeloopstraat",
    "addressNumber": "1",
    "nearbyStations": "210,211,213,215",
    "status": "OPN",
    "name": "212- Rode Loop"
  },
  {
    "id": "213",
    "district": null,
    "lon": "4.448053000000000000",
    "lat": "51.25147600000000000",
    "bikes": "20",
    "slots": "9",
    "zip": "2170",
    "address": "Kroonplein",
    "addressNumber": null,
    "nearbyStations": "208,209,212,217",
    "status": "OPN",
    "name": "213- Kroonplein"
  },
  {
    "id": "214",
    "district": null,
    "lon": "4.432336000000000000",
    "lat": "51.24810000000000000",
    "bikes": "19",
    "slots": "11",
    "zip": "2170",
    "address": "Kerkhofblommenstraat",
    "addressNumber": null,
    "nearbyStations": "210,211,212,215",
    "status": "OPN",
    "name": "214- Kerkhofblommen"
  },
  {
    "id": "215",
    "district": null,
    "lon": "4.440150000000000000",
    "lat": "51.24671300000000000",
    "bikes": "10",
    "slots": "14",
    "zip": "2170",
    "address": "Nieuwdreef",
    "addressNumber": null,
    "nearbyStations": "211,212,214,219",
    "status": "OPN",
    "name": "215- Nieuwdreef"
  },
  {
    "id": "216",
    "district": null,
    "lon": "4.449020000000000000",
    "lat": "51.24726900000000000",
    "bikes": "7",
    "slots": "9",
    "zip": "2170",
    "address": "Van Heybeeckstraat",
    "addressNumber": null,
    "nearbyStations": "213,217,219,220",
    "status": "OPN",
    "name": "216- Zwembad Merksem"
  },
  {
    "id": "217",
    "district": null,
    "lon": "4.454677000000000000",
    "lat": "51.24916500000000000",
    "bikes": "17",
    "slots": "10",
    "zip": "2170",
    "address": "Bredabaan",
    "addressNumber": null,
    "nearbyStations": "207,208,213,216",
    "status": "OPN",
    "name": "217- Joske Vermeulen"
  },
  {
    "id": "218",
    "district": null,
    "lon": "4.435687000000000000",
    "lat": "51.24302000000000000",
    "bikes": "12",
    "slots": "22",
    "zip": "2170",
    "address": "Gagelveldenstraat",
    "addressNumber": null,
    "nearbyStations": "214,215,219,220",
    "status": "OPN",
    "name": "218- Groenendaalcollege"
  },
  {
    "id": "219",
    "district": null,
    "lon": "4.442517000000000000",
    "lat": "51.24216100000000000",
    "bikes": "6",
    "slots": "26",
    "zip": "2170",
    "address": "Borrewaterstraat",
    "addressNumber": null,
    "nearbyStations": "211,215,216,220",
    "status": "OPN",
    "name": "219- Districtshuis Merksem"
  },
  {
    "id": "220",
    "district": null,
    "lon": "4.447397000000000000",
    "lat": "51.24314500000000000",
    "bikes": "17",
    "slots": "11",
    "zip": "2170",
    "address": "Sint-Bartholomeusstraat",
    "addressNumber": "120",
    "nearbyStations": "215,216,217,219",
    "status": "OPN",
    "name": "220- 't Dokske"
  },
  {
    "id": "221",
    "district": null,
    "lon": "4.407994000000000000",
    "lat": "51.24048200000000000",
    "bikes": "15",
    "slots": "20",
    "zip": "2030",
    "address": "Mexicostraat",
    "addressNumber": null,
    "nearbyStations": "138,223,224,303",
    "status": "OPN",
    "name": "221-Havenhuis"
  },
  {
    "id": "222",
    "district": null,
    "lon": "4.413912000000000000",
    "lat": "51.23333500000000000",
    "bikes": "2",
    "slots": "34",
    "zip": "2170",
    "address": "Binnenvaartstraat",
    "addressNumber": null,
    "nearbyStations": "128,136,224",
    "status": "OPN",
    "name": "222- Cadix Oost"
  },
  {
    "id": "223",
    "district": null,
    "lon": "4.403114000000000000",
    "lat": "51.23334600000000000",
    "bikes": "0",
    "slots": "35",
    "zip": "2000",
    "address": "Montevideostraat",
    "addressNumber": null,
    "nearbyStations": "133,137,138,225",
    "status": "OPN",
    "name": "223- Red Star Line"
  },
  {
    "id": "224",
    "district": null,
    "lon": "4.409584000000000000",
    "lat": "51.23439200000000000",
    "bikes": "25",
    "slots": "11",
    "zip": "2000",
    "address": "Indiestraat",
    "addressNumber": null,
    "nearbyStations": "128,133,303",
    "status": "OPN",
    "name": "224- Indiestraat"
  },
  {
    "id": "225",
    "district": null,
    "lon": "4.407688000000000000",
    "lat": "51.23048400000000000",
    "bikes": "9",
    "slots": "23",
    "zip": "2000",
    "address": "Verbindingsdok\/Oostkaai",
    "addressNumber": null,
    "nearbyStations": "128,129,133",
    "status": "OPN",
    "name": "225- Verbindingsdok Eilandje"
  },
  {
    "id": "226",
    "district": null,
    "lon": "4.429735000000000000",
    "lat": "51.23390200000000000",
    "bikes": "16",
    "slots": "20",
    "zip": "2060",
    "address": "Noordschippersdok 41",
    "addressNumber": null,
    "nearbyStations": "62,63,123,136",
    "status": "OPN",
    "name": "226- Noordschippersdok"
  },
  {
    "id": "227",
    "district": null,
    "lon": "4.444330000000000000",
    "lat": "51.23276400000000000",
    "bikes": "11",
    "slots": "13",
    "zip": "2100",
    "address": "Van Amstelstraat",
    "addressNumber": null,
    "nearbyStations": "120,122,219,229",
    "status": "OPN",
    "name": "227- Amstel"
  },
  {
    "id": "228",
    "district": null,
    "lon": "4.451413000000000000",
    "lat": "51.22984200000000000",
    "bikes": "14",
    "slots": "9",
    "zip": "2100",
    "address": "Van Heetveldelei",
    "addressNumber": null,
    "nearbyStations": "120,227,229,230",
    "status": "OPN",
    "name": "228- Van Heetvelde"
  },
  {
    "id": "229",
    "district": null,
    "lon": "4.451985000000000000",
    "lat": "51.22615900000000000",
    "bikes": "13",
    "slots": "23",
    "zip": "2100",
    "address": "Jozef Nellenslei",
    "addressNumber": null,
    "nearbyStations": "227,230,235,236",
    "status": "OPN",
    "name": "229- Jozef Nellens"
  },
  {
    "id": "230",
    "district": null,
    "lon": "4.461910000000000000",
    "lat": "51.22909200000000000",
    "bikes": "10",
    "slots": "26",
    "zip": "2100",
    "address": "Bosuil",
    "addressNumber": null,
    "nearbyStations": "229,231,233,237",
    "status": "OPN",
    "name": "230- Bosuil"
  },
  {
    "id": "231",
    "district": null,
    "lon": "4.467826000000000000",
    "lat": "51.22922000000000000",
    "bikes": "20",
    "slots": "16",
    "zip": "2100",
    "address": "Ter Heydenlaan",
    "addressNumber": "235",
    "nearbyStations": "230,233,236,238",
    "status": "OPN",
    "name": "231- den Antwerp"
  },
  {
    "id": "232",
    "district": null,
    "lon": "4.478671000000000000",
    "lat": "51.22849100000000000",
    "bikes": "21",
    "slots": "15",
    "zip": "2100",
    "address": "Wim Saerensplein",
    "addressNumber": null,
    "nearbyStations": "231,233,238,239",
    "status": "OPN",
    "name": "232- Wim Saerens"
  },
  {
    "id": "233",
    "district": null,
    "lon": "4.466165000000000000",
    "lat": "51.22509500000000000",
    "bikes": "16",
    "slots": "20",
    "zip": "2100",
    "address": "Gallifortlei",
    "addressNumber": null,
    "nearbyStations": "231,236,237,238",
    "status": "OPN",
    "name": "233- Gallifort"
  },
  {
    "id": "234",
    "district": null,
    "lon": "4.461183000000000000",
    "lat": "51.22220100000000000",
    "bikes": "12",
    "slots": "23",
    "zip": "2100",
    "address": "Jan Brochovenstraat",
    "addressNumber": "24",
    "nearbyStations": "233,235,236,237",
    "status": "OPN",
    "name": "234- Deurne Atheneum"
  },
  {
    "id": "235",
    "district": null,
    "lon": "4.455008000000000000",
    "lat": "51.21994200000000000",
    "bikes": "3",
    "slots": "31",
    "zip": "2100",
    "address": "Cogelsplein",
    "addressNumber": null,
    "nearbyStations": "155,233,236,237",
    "status": "OPN",
    "name": "235- Cogelsplein"
  },
  {
    "id": "236",
    "district": null,
    "lon": "4.460066000000000000",
    "lat": "51.21916100000000000",
    "bikes": "8",
    "slots": "26",
    "zip": "2100",
    "address": "Maurice Dequeeckerplein",
    "addressNumber": "1",
    "nearbyStations": "155,233,235,237",
    "status": "OPN",
    "name": "236- Districtshuis Deurne"
  },
  {
    "id": "237",
    "district": null,
    "lon": "4.469246000000000000",
    "lat": "51.22033000000000000",
    "bikes": "19",
    "slots": "17",
    "zip": "2100",
    "address": "Ter Rivierenlaan",
    "addressNumber": null,
    "nearbyStations": "233,235,236,239",
    "status": "OPN",
    "name": "237- Ter Rivieren"
  },
  {
    "id": "238",
    "district": null,
    "lon": "4.475630000000000000",
    "lat": "51.22373200000000000",
    "bikes": "8",
    "slots": "14",
    "zip": "2100",
    "address": "Ertbruggelaan",
    "addressNumber": "2",
    "nearbyStations": "231,233,237,239",
    "status": "OPN",
    "name": "238- Ertbrugge"
  },
  {
    "id": "239",
    "district": null,
    "lon": "4.479477000000000000",
    "lat": "51.22126100000000000",
    "bikes": "8",
    "slots": "22",
    "zip": "2100",
    "address": "Alfons schneiderlaan",
    "addressNumber": "39",
    "nearbyStations": "233,237,238,240",
    "status": "OPN",
    "name": "239- Zwarte Arend"
  },
  {
    "id": "240",
    "district": null,
    "lon": "4.482117000000000000",
    "lat": "51.21757200000000000",
    "bikes": "27",
    "slots": "8",
    "zip": "2100",
    "address": "Ruggeveldlaan",
    "addressNumber": null,
    "nearbyStations": "233,237,238,239",
    "status": "OPN",
    "name": "240- Park Groot Schijn"
  },
  {
    "id": "241",
    "district": null,
    "lon": "4.453333000000000000",
    "lat": "51.21333300000000000",
    "bikes": "19",
    "slots": "15",
    "zip": "2100",
    "address": "Collegelaan ",
    "addressNumber": "95",
    "nearbyStations": "68,155,242,243",
    "status": "OPN",
    "name": "241- Kerkendijk"
  },
  {
    "id": "242",
    "district": null,
    "lon": "4.452514000000000000",
    "lat": "51.21043100000000000",
    "bikes": "5",
    "slots": "29",
    "zip": "2140",
    "address": "Te Boelaerlei",
    "addressNumber": null,
    "nearbyStations": "241,243,247,248",
    "status": "OPN",
    "name": "242- Te Boelaerlei"
  },
  {
    "id": "243",
    "district": null,
    "lon": "4.458156000000000000",
    "lat": "51.20953500000000000",
    "bikes": "5",
    "slots": "31",
    "zip": "2100",
    "address": "Herentalsebaan",
    "addressNumber": null,
    "nearbyStations": "242,244,246,255",
    "status": "OPN",
    "name": "243- Mestputteke"
  },
  {
    "id": "244",
    "district": null,
    "lon": "4.465315000000000000",
    "lat": "51.20763600000000000",
    "bikes": "12",
    "slots": "24",
    "zip": "2100",
    "address": "Herentalsebaan",
    "addressNumber": null,
    "nearbyStations": "242,243,246,255",
    "status": "OPN",
    "name": "244- Waterbaan"
  },
  {
    "id": "245",
    "district": null,
    "lon": "4.471315000000000000",
    "lat": "51.20681100000000000",
    "bikes": "13",
    "slots": "23",
    "zip": "2100",
    "address": "Florent Pauwelslei",
    "addressNumber": null,
    "nearbyStations": "240,244,246,255",
    "status": "OPN",
    "name": "245- AZ Monica"
  },
  {
    "id": "246",
    "district": null,
    "lon": "4.458333000000000000",
    "lat": "51.20694600000000000",
    "bikes": "13",
    "slots": "23",
    "zip": "2100",
    "address": "Arenaplein",
    "addressNumber": null,
    "nearbyStations": "242,243,244,251",
    "status": "OPN",
    "name": "246- Arena"
  },
  {
    "id": "247",
    "district": null,
    "lon": "4.445950000000000000",
    "lat": "51.20831900000000000",
    "bikes": "2",
    "slots": "33",
    "zip": "2100",
    "address": "Luitenant Lippenslaan",
    "addressNumber": null,
    "nearbyStations": "9,241,242,248",
    "status": "OPN",
    "name": "247- ZNA Sint Erasmus"
  },
  {
    "id": "248",
    "district": null,
    "lon": "4.449254000000000000",
    "lat": "51.20597900000000000",
    "bikes": "17",
    "slots": "19",
    "zip": "2140",
    "address": "De Schans",
    "addressNumber": null,
    "nearbyStations": "242,246,247,251",
    "status": "OPN",
    "name": "248- De Schans"
  },
  {
    "id": "249",
    "district": null,
    "lon": "4.444224000000000000",
    "lat": "51.20381000000000000",
    "bikes": "13",
    "slots": "14",
    "zip": "2600",
    "address": "Frans de Vriendstraat",
    "addressNumber": null,
    "nearbyStations": null,
    "status": "OPN",
    "name": "249- Frans De Vriend"
  },
  {
    "id": "250",
    "district": null,
    "lon": "4.438997000000000000",
    "lat": "51.20110600000000000",
    "bikes": "12",
    "slots": "24",
    "zip": "2600",
    "address": "Diksmuidelaan",
    "addressNumber": null,
    "nearbyStations": "7,112,249,252",
    "status": "OPN",
    "name": "250- Borsbeekbrug"
  },
  {
    "id": "251",
    "district": null,
    "lon": "4.452089000000000000",
    "lat": "51.20396600000000000",
    "bikes": "14",
    "slots": "15",
    "zip": "2140",
    "address": "Arthur Matthyslaan",
    "addressNumber": null,
    "nearbyStations": "246,248,249,252",
    "status": "OPN",
    "name": "251- Te Boelaerpark Noord"
  },
  {
    "id": "252",
    "district": null,
    "lon": "4.450281000000000000",
    "lat": "51.20001100000000000",
    "bikes": "17",
    "slots": "15",
    "zip": "2140",
    "address": "Karel de Preterlei",
    "addressNumber": null,
    "nearbyStations": "249,250,251,253",
    "status": "OPN",
    "name": "252- Te Boelaerpark\/Gitschotellei"
  },
  {
    "id": "253",
    "district": null,
    "lon": "4.453219000000000000",
    "lat": "51.19806400000000000",
    "bikes": "21",
    "slots": "14",
    "zip": "2140",
    "address": "Vosstraat",
    "addressNumber": null,
    "nearbyStations": "251,252,254,257",
    "status": "OPN",
    "name": "253- Vosplein"
  },
  {
    "id": "254",
    "district": null,
    "lon": "4.459599000000000000",
    "lat": "51.19754100000000000",
    "bikes": "19",
    "slots": "10",
    "zip": "2100",
    "address": "Boekenberglei",
    "addressNumber": null,
    "nearbyStations": "251,252,253,255",
    "status": "OPN",
    "name": "254- Sint-Jozef"
  },
  {
    "id": "255",
    "district": null,
    "lon": "4.467644000000000000",
    "lat": "51.20413900000000000",
    "bikes": "21",
    "slots": "14",
    "zip": "2100",
    "address": "Van den Hautelei",
    "addressNumber": null,
    "nearbyStations": "243,244,246,254",
    "status": "OPN",
    "name": "255- Van den Haute"
  },
  {
    "id": "256",
    "district": null,
    "lon": "4.442231000000000000",
    "lat": "51.19545500000000000",
    "bikes": "14",
    "slots": "12",
    "zip": "2600",
    "address": "Helderstraat",
    "addressNumber": null,
    "nearbyStations": "252,253,257,259",
    "status": "OPN",
    "name": "256- Zillebeek"
  },
  {
    "id": "257",
    "district": null,
    "lon": "4.448750000000000000",
    "lat": "51.19232700000000000",
    "bikes": "11",
    "slots": "25",
    "zip": "2600",
    "address": "Hofstadestraat",
    "addressNumber": null,
    "nearbyStations": "252,253,254,256",
    "status": "OPN",
    "name": "257- Hofstade"
  },
  {
    "id": "258",
    "district": null,
    "lon": "4.443731000000000000",
    "lat": "51.19749800000000000",
    "bikes": "15",
    "slots": "14",
    "zip": "2600",
    "address": "Lodewijk van Berckenlaan",
    "addressNumber": null,
    "nearbyStations": "249,250,252,256",
    "status": "OPN",
    "name": "258- Hof van Nauwelaerts"
  },
  {
    "id": "259",
    "district": null,
    "lon": "4.437033000000000000",
    "lat": "51.19332100000000000",
    "bikes": "8",
    "slots": "28",
    "zip": "2600",
    "address": "Posthofbrug",
    "addressNumber": null,
    "nearbyStations": "55,256,262,264",
    "status": "OPN",
    "name": "259- Posthofbrug"
  },
  {
    "id": "260",
    "district": null,
    "lon": "4.421661000000000000",
    "lat": "51.18963700000000000",
    "bikes": "17",
    "slots": "10",
    "zip": "2600",
    "address": "Hof ter Schriecklaan",
    "addressNumber": "1",
    "nearbyStations": "103,157,261,269",
    "status": "OPN",
    "name": "260- Ter Schrieck"
  },
  {
    "id": "261",
    "district": null,
    "lon": "4.429588000000000000",
    "lat": "51.18862700000000000",
    "bikes": "22",
    "slots": "14",
    "zip": "2600",
    "address": "Henri Prostlaan",
    "addressNumber": null,
    "nearbyStations": "262,264,265,269",
    "status": "OPN",
    "name": "261- Brilschans"
  },
  {
    "id": "262",
    "district": null,
    "lon": "4.435614000000000000",
    "lat": "51.18932300000000000",
    "bikes": "14",
    "slots": "22",
    "zip": "2600",
    "address": "Hoogveld",
    "addressNumber": null,
    "nearbyStations": "259,261,264,265",
    "status": "OPN",
    "name": "262- Hoogveld"
  },
  {
    "id": "263",
    "district": null,
    "lon": "4.441041000000000000",
    "lat": "51.18452800000000000",
    "bikes": "10",
    "slots": "25",
    "zip": "2600",
    "address": "Fruithoflaan - Jos Ratinckxstraat",
    "addressNumber": "110",
    "nearbyStations": "262,264,265,266",
    "status": "OPN",
    "name": "263- Fruithoflaan 2"
  },
  {
    "id": "264",
    "district": null,
    "lon": "4.435101000000000000",
    "lat": "51.18764900000000000",
    "bikes": "6",
    "slots": "30",
    "zip": "2600",
    "address": "Filip Williotstraat",
    "addressNumber": null,
    "nearbyStations": "259,261,262,265",
    "status": "OPN",
    "name": "264- Filip Williotstraat"
  },
  {
    "id": "265",
    "district": null,
    "lon": "4.432041000000000000",
    "lat": "51.18513800000000000",
    "bikes": "15",
    "slots": "13",
    "zip": "2600",
    "address": "Pulhoflaan",
    "addressNumber": null,
    "nearbyStations": "261,262,264,269",
    "status": "OPN",
    "name": "265- Pulhof"
  },
  {
    "id": "266",
    "district": null,
    "lon": "4.434712000000000000",
    "lat": "51.18076400000000000",
    "bikes": "17",
    "slots": "19",
    "zip": "2600",
    "address": "Fruithoflaan - Sint-Theresiastraat",
    "addressNumber": "1",
    "nearbyStations": "263,265,269,272",
    "status": "OPN",
    "name": "266- Fruithoflaan 1"
  },
  {
    "id": "267",
    "district": null,
    "lon": "4.423380000000000000",
    "lat": "51.18588800000000000",
    "bikes": "15",
    "slots": "14",
    "zip": "2600",
    "address": "Prins Leopoldstraat",
    "addressNumber": null,
    "nearbyStations": "260,265,268,269",
    "status": "OPN",
    "name": "267- Leopold"
  },
  {
    "id": "268",
    "district": null,
    "lon": "4.418486000000000000",
    "lat": "51.18296100000000000",
    "bikes": "8",
    "slots": "28",
    "zip": "2020",
    "address": "Lindendreef",
    "addressNumber": null,
    "nearbyStations": "260,265,269,270",
    "status": "OPN",
    "name": "268- ZNA Middelheim"
  },
  {
    "id": "269",
    "district": null,
    "lon": "4.424310000000000000",
    "lat": "51.18309200000000000",
    "bikes": "17",
    "slots": "17",
    "zip": "2600",
    "address": "Elisabethlaan",
    "addressNumber": null,
    "nearbyStations": "260,261,265,268",
    "status": "OPN",
    "name": "269- Middelheim"
  },
  {
    "id": "270",
    "district": null,
    "lon": "4.404271000000000000",
    "lat": "51.18645300000000000",
    "bikes": "12",
    "slots": "22",
    "zip": "2020",
    "address": "Eglantierlaan",
    "addressNumber": null,
    "nearbyStations": "31,131,273,277",
    "status": "OPN",
    "name": "270- Dikke Mee"
  },
  {
    "id": "271",
    "district": null,
    "lon": "4.408988000000000000",
    "lat": "51.18069400000000000",
    "bikes": "8",
    "slots": "28",
    "zip": "2020",
    "address": "Beukenlaan",
    "addressNumber": "24",
    "nearbyStations": "268,270,273,277",
    "status": "OPN",
    "name": "271- Middelheimmuseum"
  },
  {
    "id": "272",
    "district": null,
    "lon": "4.423080000000000000",
    "lat": "51.17785800000000000",
    "bikes": "16",
    "slots": "20",
    "zip": "2610",
    "address": "Groenenborgerlaan",
    "addressNumber": null,
    "nearbyStations": "266,268,269,273",
    "status": "OPN",
    "name": "272- Groenenborger"
  },
  {
    "id": "273",
    "district": null,
    "lon": "4.412831000000000000",
    "lat": "51.17582000000000000",
    "bikes": "7",
    "slots": "29",
    "zip": "2610",
    "address": "Oosterveldlaan",
    "addressNumber": null,
    "nearbyStations": "268,269,275,277",
    "status": "OPN",
    "name": "273- Campus Groenenborger"
  },
  {
    "id": "274",
    "district": null,
    "lon": "4.394845000000000000",
    "lat": "51.17039300000000000",
    "bikes": "11",
    "slots": "19",
    "zip": "2610",
    "address": "Bist",
    "addressNumber": "148-150",
    "nearbyStations": "275,278,279,280",
    "status": "OPN",
    "name": "274- De Bist"
  },
  {
    "id": "275",
    "district": null,
    "lon": "4.403340000000000000",
    "lat": "51.17436500000000000",
    "bikes": "6",
    "slots": "30",
    "zip": "2610",
    "address": "Groenenborgerlaan 17",
    "addressNumber": null,
    "nearbyStations": "273,274,277,280",
    "status": "OPN",
    "name": "275- Sneeuwbes"
  },
  {
    "id": "276",
    "district": null,
    "lon": "4.393877000000000000",
    "lat": "51.18350600000000000",
    "bikes": "17",
    "slots": "17",
    "zip": "2610",
    "address": "Kruishofstraat",
    "addressNumber": null,
    "nearbyStations": "270,277,280,282",
    "status": "OPN",
    "name": "276- Corbusier"
  },
  {
    "id": "277",
    "district": null,
    "lon": "4.399725000000000000",
    "lat": "51.17707800000000000",
    "bikes": "9",
    "slots": "27",
    "zip": "2610",
    "address": "Ahornenlaan ",
    "addressNumber": "4",
    "nearbyStations": "270,273,275,280",
    "status": "OPN",
    "name": "277- Ahornen"
  },
  {
    "id": "278",
    "district": null,
    "lon": "4.393937000000000000",
    "lat": "51.16533000000000000",
    "bikes": "25",
    "slots": "11",
    "zip": "2610",
    "address": "Oversneslaan",
    "addressNumber": "59",
    "nearbyStations": "274,275,277,279",
    "status": "OPN",
    "name": "278- Oversnes"
  },
  {
    "id": "279",
    "district": null,
    "lon": "4.394375000000000000",
    "lat": "51.16868100000000000",
    "bikes": "14",
    "slots": "21",
    "zip": "2610",
    "address": "Doornstraat",
    "addressNumber": null,
    "nearbyStations": "274,275,277,278",
    "status": "OPN",
    "name": "279- Ieperman"
  },
  {
    "id": "280",
    "district": null,
    "lon": "4.382415000000000000",
    "lat": "51.17672400000000000",
    "bikes": "7",
    "slots": "29",
    "zip": "2610",
    "address": "Bosheidelaan",
    "addressNumber": null,
    "nearbyStations": "270,274,277,282",
    "status": "OPN",
    "name": "280- Marmotteke"
  },
  {
    "id": "281",
    "district": null,
    "lon": "4.385404000000000000",
    "lat": "51.18247600000000000",
    "bikes": "11",
    "slots": "24",
    "zip": "2020",
    "address": "Hof van Tichelen",
    "addressNumber": null,
    "nearbyStations": "276,277,280,282",
    "status": "OPN",
    "name": "281- Hof van Tichelen"
  },
  {
    "id": "282",
    "district": null,
    "lon": "4.380868000000000000",
    "lat": "51.18023200000000000",
    "bikes": "11",
    "slots": "25",
    "zip": "2610",
    "address": "Letterkundestraat 61",
    "addressNumber": null,
    "nearbyStations": "270,274,277,280",
    "status": "OPN",
    "name": "282- De Letter"
  },
  {
    "id": "283",
    "district": null,
    "lon": "4.372030000000000000",
    "lat": "51.18166600000000000",
    "bikes": "16",
    "slots": "19",
    "zip": "2660",
    "address": "Hollebeekstraat",
    "addressNumber": null,
    "nearbyStations": "281,284,288,290",
    "status": "OPN",
    "name": "283- Hollebeek"
  },
  {
    "id": "284",
    "district": null,
    "lon": "4.364133000000000000",
    "lat": "51.18323000000000000",
    "bikes": "12",
    "slots": "24",
    "zip": "2660",
    "address": "Steynsstraat",
    "addressNumber": null,
    "nearbyStations": "283,285,288,290",
    "status": "OPN",
    "name": "284- Steynsstraat"
  },
  {
    "id": "285",
    "district": null,
    "lon": "4.352957000000000000",
    "lat": "51.18378700000000000",
    "bikes": "8",
    "slots": "19",
    "zip": "2660",
    "address": "Commandant Weynsstraat",
    "addressNumber": "127",
    "nearbyStations": "284,286,287,288",
    "status": "OPN",
    "name": "285- Hoge Beuken"
  },
  {
    "id": "286",
    "district": null,
    "lon": "4.348112000000000000",
    "lat": "51.18253400000000000",
    "bikes": "12",
    "slots": "24",
    "zip": "2660",
    "address": "Berkenrodelei",
    "addressNumber": "2",
    "nearbyStations": "285,287,288,289",
    "status": "OPN",
    "name": "286- Station Hoboken\/Polderstad"
  },
  {
    "id": "287",
    "district": null,
    "lon": "4.350760000000000000",
    "lat": "51.17748400000000000",
    "bikes": "16",
    "slots": "19",
    "zip": "2660",
    "address": "Antwerpsesteenweg",
    "addressNumber": null,
    "nearbyStations": "285,286,288,289",
    "status": "OPN",
    "name": "287- Kioskplaats\/Centrum"
  },
  {
    "id": "288",
    "district": null,
    "lon": "4.359723000000000000",
    "lat": "51.17731800000000000",
    "bikes": "13",
    "slots": "23",
    "zip": "2660",
    "address": "Draaiboomstraat",
    "addressNumber": "50",
    "nearbyStations": "283,287,289,290",
    "status": "OPN",
    "name": "288- Draaiboom"
  },
  {
    "id": "289",
    "district": null,
    "lon": "4.352282000000000000",
    "lat": "51.17355300000000000",
    "bikes": "11",
    "slots": "25",
    "zip": "2660",
    "address": "Walstraat",
    "addressNumber": "3",
    "nearbyStations": "286,287,288,290",
    "status": "OPN",
    "name": "289- Broydenborgpark"
  },
  {
    "id": "290",
    "district": null,
    "lon": "4.367697000000000000",
    "lat": "51.17621200000000000",
    "bikes": "10",
    "slots": "26",
    "zip": "2660",
    "address": "Schoonselhoflei",
    "addressNumber": null,
    "nearbyStations": "283,284,288,289",
    "status": "OPN",
    "name": "290- Co\u00f6peratielaan"
  },
  {
    "id": "291",
    "district": null,
    "lon": "4.372703000000000000",
    "lat": "51.18850300000000000",
    "bikes": "4",
    "slots": "32",
    "zip": "2020",
    "address": "Maurits Sabbelaan",
    "addressNumber": null,
    "nearbyStations": "284,292,294,295",
    "status": "OPN",
    "name": "291- Braem blokken"
  },
  {
    "id": "292",
    "district": null,
    "lon": "4.381008000000000000",
    "lat": "51.19080700000000000",
    "bikes": "11",
    "slots": "23",
    "zip": "2020",
    "address": "Jacob le Mairestraat",
    "addressNumber": "8",
    "nearbyStations": "291,294,295,297",
    "status": "OPN",
    "name": "292- Kielpark"
  },
  {
    "id": "293",
    "district": null,
    "lon": "4.390949000000000000",
    "lat": "51.18851600000000000",
    "bikes": "14",
    "slots": "22",
    "zip": "2020",
    "address": "Edgard Casteleinstraat",
    "addressNumber": null,
    "nearbyStations": "296,297,299,300",
    "status": "OPN",
    "name": "293- Edgard Castelein"
  },
  {
    "id": "294",
    "district": null,
    "lon": "4.376694000000000000",
    "lat": "51.19101700000000000",
    "bikes": "9",
    "slots": "24",
    "zip": "2020",
    "address": "Eugeen Laermansstraat",
    "addressNumber": null,
    "nearbyStations": "291,292,295,297",
    "status": "OPN",
    "name": "294- Den Tir"
  },
  {
    "id": "295",
    "district": null,
    "lon": "4.379091000000000000",
    "lat": "51.19427500000000000",
    "bikes": "0",
    "slots": "36",
    "zip": "2020",
    "address": "Emiel Vloorstraat",
    "addressNumber": null,
    "nearbyStations": "291,292,294,297",
    "status": "OPN",
    "name": "295- Sporthal Kiel"
  },
  {
    "id": "296",
    "district": null,
    "lon": "4.393042000000000000",
    "lat": "51.19408300000000000",
    "bikes": "7",
    "slots": "22",
    "zip": "2020",
    "address": "Eric Sassenlaan",
    "addressNumber": null,
    "nearbyStations": "293,297,299,300",
    "status": "OPN",
    "name": "296- Mastvest"
  },
  {
    "id": "297",
    "district": null,
    "lon": "4.388933000000000000",
    "lat": "51.19062000000000000",
    "bikes": "23",
    "slots": "13",
    "zip": "2020",
    "address": "Tentoonstellingslaan",
    "addressNumber": null,
    "nearbyStations": "293,296,299,300",
    "status": "OPN",
    "name": "297- Tentoonstellingswijk"
  },
  {
    "id": "298",
    "district": null,
    "lon": "4.382368000000000000",
    "lat": "51.17190000000000000",
    "bikes": "15",
    "slots": "12",
    "zip": "2610",
    "address": "Valkstraat",
    "addressNumber": null,
    "nearbyStations": "281,283,290,302",
    "status": "OPN",
    "name": "298- Koornbloem"
  },
  {
    "id": "299",
    "district": null,
    "lon": "4.398349000000000000",
    "lat": "51.19195500000000000",
    "bikes": "14",
    "slots": "20",
    "zip": "2020",
    "address": "C.Huysmanslaan",
    "addressNumber": null,
    "nearbyStations": "293,296,297,300",
    "status": "OPN",
    "name": "299- Antwerp expo"
  },
  {
    "id": "300",
    "district": null,
    "lon": "4.397701000000000000",
    "lat": "51.18874700000000000",
    "bikes": "9",
    "slots": "27",
    "zip": "2020",
    "address": "Vogelzanglaan",
    "addressNumber": null,
    "nearbyStations": "293,296,297,299",
    "status": "OPN",
    "name": "300- Wilrijksepleinen"
  },
  {
    "id": "301",
    "district": null,
    "lon": "4.450391000000000000",
    "lat": "51.18884000000000000",
    "bikes": "17",
    "slots": "18",
    "zip": "2100",
    "address": "Luchthaven ",
    "addressNumber": null,
    "nearbyStations": "256,257,259,263",
    "status": "OPN",
    "name": "301- Luchthaven "
  },
  {
    "id": "302",
    "district": null,
    "lon": "4.390479000000000000",
    "lat": "51.17904100000000000",
    "bikes": "14",
    "slots": "16",
    "zip": "2610",
    "address": "Rozenkrans",
    "addressNumber": null,
    "nearbyStations": "281,283,293,298",
    "status": "OPN",
    "name": "302- Rozenkrans"
  },
  {
    "id": "303",
    "district": null,
    "lon": "4.409588000000000000",
    "lat": "51.23793300000000000",
    "bikes": "12",
    "slots": "23",
    "zip": "2000",
    "address": "Kambalastraat",
    "addressNumber": null,
    "nearbyStations": "221,224,225",
    "status": "OPN",
    "name": "303-Kambala"
  }
]